,ID,LATITUDE,LONGITUDE,ELEVATION,STATE,NAME,GSN FLAG,HCN/CRN FLAG,WMO ID
88873,USC00040029,41.1936,-120.9447,1278.6,CA,ADIN RS,,,
88883,USC00040136,32.8358,-116.7775,516.6,CA,ALPINE,,,
88887,USC00040176,34.5592,-115.7442,197.5,CA,AMBOY,,,
88925,USC00040521,34.8928,-117.0219,676.7,CA,BARSTOW,,,
88949,USC00040741,34.2431,-116.9169,2058.3,CA,BIG BEAR LAKE,,,
88967,USC00040924,33.6131,-114.5972,81.7,CA,BLYTHE,,HCN,
88968,USC00040931,39.3886,-120.0936,1699.3,CA,BOCA,,,
88969,USC00040943,38.2119,-119.0142,2551.2,CA,BODIE CALIFORNIA ST HISTORIC P,,,
88972,USC00040983,33.2558,-116.4036,246.9,CA,BORREGO DESERT PARK,,,
88979,USC00041018,39.4539,-120.6556,1641.3,CA,BOWMAN DAM,,,
88989,USC00041072,38.2575,-119.2286,1972.1,CA,BRIDGEPORT,,,
88998,USC00041149,40.8669,-121.8464,1158.2,CA,BUCKHORN,,,
88999,USC00041159,39.9372,-121.3147,576.4,CA,BUCKS CREEK,,,
89004,USC00041194,34.1867,-118.3481,199.6,CA,BURBANK VALLEY PUMP PLT,,,
89016,USC00041277,38.2769,-120.3114,1431.0,CA,CALAVERAS BIG TREES,,,
89027,USC00041424,32.6264,-116.4700,801.6,CA,CAMPO,,,
89028,USC00041428,38.2486,-120.8433,200.6,CA,CAMP PARDEE,,,
89035,USC00041497,40.1706,-121.0886,1389.9,CA,CANYON DAM,,,
89050,USC00041614,41.5300,-120.1792,1428.9,CA,CEDARVILLE,,HCN,
89057,USC00041697,37.9747,-119.9161,1452.4,CA,CHERRY VALLEY DAM,,,
89058,USC00041700,40.3033,-121.2422,1380.7,CA,CHESTER,,,
89059,USC00041715,39.6911,-121.8211,56.4,CA,CHICO UNIV FARM,,HCN,
89090,USC00041907,40.4000,-122.1433,128.0,CA,COLEMAN FISHERIES STN,,,
89093,USC00041912,39.0911,-120.9481,725.4,CA,COLFAX,,HCN,
89094,USC00041916,39.3308,-121.1922,181.4,CA,COLGATE POWERHOUSE,,,
89096,USC00041948,39.1875,-122.0269,15.2,CA,COLUSA 2 SSW,,,
89103,USC00041990,41.9797,-122.3378,823.9,CA,COPCO #1 DAM,,,
89130,USC00042239,32.9897,-116.5872,1414.3,CA,CUYAMACA,,HCN,
89135,USC00042294,38.5350,-121.7761,18.3,CA,DAVIS 2 WSW EXP FARM,,HCN,
89138,USC00042319,36.4622,-116.8669,-59.1,CA,DEATH VALLEY,,HCN,
89151,USC00042402,39.8717,-121.6108,826.0,CA,DE SABLA,,,
89161,USC00042500,39.5633,-120.8239,888.5,CA,DOWNIEVILLE,,,
89170,USC00042574,41.1833,-122.2736,661.4,CA,DUNSMUIR TRTMT PL,,,
89173,USC00042598,33.8089,-115.4508,296.6,CA,EAGLE MTN,,,
89181,USC00042713,32.7669,-115.5617,-9.1,CA,EL CENTRO 2 SSW,,,
89202,USC00042934,38.2736,-122.0678,12.2,CA,FAIRFIELD,,,
89205,USC00042964,41.0081,-121.4350,1005.8,CA,FALL RVR MILLS,,,
89211,USC00043038,38.5236,-120.7061,658.4,CA,FIDDLETOWN DEXTER RCH,,,
89226,USC00043134,39.0100,-120.8456,919.0,CA,FORESTHILL RS,,,
89228,USC00043157,41.8714,-120.1575,1444.4,CA,FT BIDWELL,,,
89233,USC00043182,41.6000,-122.8478,830.6,CA,FT JONES RS,,,
89254,USC00043384,38.9331,-120.8008,914.7,CA,GEORGETOWN RS,,,
89271,USC00043463,35.7269,-118.7006,957.1,CA,GLENNVILLE,,,
89275,USC00043491,39.1650,-120.8567,1011.9,CA,GOLD RUN 2 SW,,,
89279,USC00043551,36.7375,-118.9619,2005.6,CA,GRANT GROVE,,,
89283,USC00043573,39.2042,-121.0681,731.5,CA,GRASS VALLEY #2,,,
89295,USC00043669,37.8444,-120.2258,853.4,CA,GROVELAND 2,,,
89308,USC00043761,41.8042,-123.3758,341.4,CA,HAPPY CAMP RS,,HCN,
89311,USC00043800,39.2372,-121.2667,243.8,CA,HARRY L ENGLEBRIGHT DAM,,,
89314,USC00043824,40.9317,-121.5433,919.0,CA,HAT CREEK,,,
89315,USC00043855,33.7044,-115.6289,417.6,CA,HAYFIELD PUMPING PLT,,,
89329,USC00043939,37.9614,-119.7831,1179.6,CA,HETCH HETCHY,,,
89357,USC00044211,33.7572,-116.7067,1639.8,CA,IDYLLWILD FIRE DEPT,,,
89358,USC00044223,32.8489,-115.5667,-19.5,CA,IMPERIAL,,,
89369,USC00044297,34.1472,-115.1219,281.0,CA,IRON MTN,,,
89375,USC00044405,34.1472,-116.2747,781.2,CA,JOSHUA TREE,,,
89383,USC00044484,38.8089,-120.8208,609.6,CA,KELSEY 1 N,,,
89424,USC00044712,38.4919,-122.0039,57.0,CA,LAKE SOLANO,,,
89436,USC00044838,41.7019,-121.5011,1453.9,CA,LAVA BEDS NAT MON,,,
89443,USC00044881,37.9567,-119.1194,2071.7,CA,LEE VINING,,,
89458,USC00045026,36.6044,-118.7325,2052.8,CA,LODGEPOLE,,,
89498,USC00045311,40.5411,-121.5767,1752.6,CA,MANZANITA LAKE,,,
89506,USC00045360,38.4917,-122.1242,146.3,CA,MARKLEY COVE,,,
89514,USC00045449,41.2514,-122.1383,999.7,CA,MCCLOUD,,,
89526,USC00045598,38.7478,-122.6258,341.7,CA,MIDDLETOWN,,,
89532,USC00045679,40.3458,-121.6092,1485.9,CA,MINERAL,,,
89536,USC00045756,35.0492,-118.1619,833.6,CA,MOJAVE,,,
89561,USC00045915,37.8792,-121.9303,661.4,CA,MT DIABLO JUNCTION,,,
89562,USC00045933,37.3436,-121.6425,1282.0,CA,MT HAMILTON,,,
89564,USC00045941,41.7836,-122.0447,1295.4,CA,MT HEBRON RS,,,
89569,USC00045983,41.3217,-122.3172,1102.5,CA,MT SHASTA,,HCN,
89580,USC00046136,39.2467,-121.0008,847.6,CA,NEVADA CITY,,,
89595,USC00046194,38.9261,-121.5447,13.1,CA,NICOLAUS #2,,,
89601,USC00046252,37.2328,-119.5097,806.2,CA,N FK RS,,,
89607,USC00046328,41.8392,-122.8503,603.5,CA,OAK KNOLL W C,,,
89630,USC00046506,39.7458,-122.1997,77.4,CA,ORLAND,,HCN,
89632,USC00046521,39.5178,-121.5531,52.1,CA,OROVILLE,,,
89643,USC00046597,38.7583,-120.5031,1051.6,CA,PACIFIC HOUSE,,,
89654,USC00046657,33.3781,-116.8400,1691.6,CA,PALOMAR MTN OBSY,,,
89659,USC00046685,39.7539,-121.6242,533.4,CA,PARADISE,,,
89660,USC00046699,34.2903,-114.1708,224.9,CA,PARKER RESRVOIR,,,
89669,USC00046773,34.5025,-117.8969,945.2,CA,PEARBLOSSOM,,,
89685,USC00046946,40.9869,-121.9772,444.4,CA,PIT RVR PH 5,,,
89700,USC00047085,39.8053,-120.4719,1478.3,CA,PORTOLA,,,
89706,USC00047109,39.3619,-123.1286,310.3,CA,POTTER VALLEY POWERHOUSE,,,
89710,USC00047195,39.9367,-120.9475,1042.4,CA,QUINCY,,HCN,
89819,USC00048014,34.5894,-118.4547,636.7,CA,SAUGUS PWR PLT 1,,,
89831,USC00048135,40.7142,-122.4161,327.7,CA,SHASTA DAM,,,
89841,USC00048218,39.5833,-120.3706,1516.4,CA,SIERRAVILLE RS,,,
89863,USC00048353,37.9672,-120.3872,510.5,CA,SONORA,,,
89865,USC00048380,37.5122,-119.6331,1538.3,CA,SO ENTRANCE YOSEMITE NP,,,
89894,USC00048587,39.5861,-122.5342,243.8,CA,STONY GORGE RSVR,,,
89895,USC00048606,39.5631,-121.1078,1160.7,CA,STRAWBERRY VALLEY,,,
89903,USC00048702,40.4167,-120.6631,1283.8,CA,SUSANVILLE 2SW,,HCN,
89905,USC00048713,38.3772,-120.8008,483.4,CA,SUTTER HILL CDF,,,
89908,USC00048758,39.1678,-120.1428,1898.9,CA,TAHOE CITY,,HCN,
89930,USC00048999,37.6819,-121.3467,41.1,CA,TRACY CARBONA,,,
89934,USC00049026,40.7264,-122.7947,567.2,CA,TRINITY RVR HATCHERY,,,
89935,USC00049035,35.7636,-117.3908,516.6,CA,TRONA,,,
89942,USC00049053,41.9600,-121.4744,1229.9,CA,TULELAKE,,,
89946,USC00049073,37.5006,-120.8550,35.1,CA,TURLOCK #2,,,
89958,USC00049152,34.0697,-118.4428,131.1,CA,U C L A,,,
89982,USC00049367,36.3283,-119.2997,92.4,CA,VISALIA,,,
89988,USC00049390,40.4583,-121.8664,676.7,CA,VOLTA PH,,,
89998,USC00049452,35.5892,-119.3519,88.7,CA,WASCO,,HCN,
90004,USC00049490,40.7367,-122.9403,627.3,CA,WEAVERVILLE,,HCN,
90011,USC00049582,38.3775,-120.5453,845.8,CA,W PT,,,
90021,USC00049621,40.6117,-122.5281,394.7,CA,WHISKEYTOWN RSVR,,,
90032,USC00049699,39.5231,-122.3047,71.3,CA,WILLOWS 6 W,,HCN,
90035,USC00049742,38.5253,-121.9778,41.1,CA,WINTERS,,,
90039,USC00049781,38.6828,-121.7939,20.4,CA,WOODLAND 1 WNW,,,
90046,USC00049855,37.7503,-119.5897,1224.7,CA,YOSEMITE PARK HQ,,HCN,
90048,USC00049866,41.7036,-122.6408,800.1,CA,YREKA,,HCN,
112612,USW00003104,33.6267,-116.1594,-36.0,CA,DESERT RESORTS RGNL AP,,,
112622,USW00003159,34.7411,-118.2117,712.6,CA,LANCASTER WM J FOX FLD,,,
113371,USW00023119,33.9000,-117.2500,462.1,CA,MARCH AFB,,,72286
113373,USW00023129,33.8117,-118.1464,9.4,CA,LONG BEACH DAUGHERTY FLD,,,72297
113374,USW00023130,34.2097,-118.4892,234.7,CA,VAN NUYS AP,,,
113376,USW00023136,34.2167,-119.0833,23.5,CA,CAMARILLO AP,,,
113381,USW00023155,35.4344,-119.0542,149.0,CA,BAKERSFIELD AP,,,72384
113383,USW00023157,37.3711,-118.3581,1250.3,CA,BISHOP AP,,,72480
113387,USW00023161,34.8536,-116.7858,584.3,CA,BARSTOW DAGGETT AP,,,
113395,USW00023174,33.9381,-118.3889,29.6,CA,LOS ANGELES INTL AP,,,72295
113399,USW00023179,34.7675,-114.6189,271.3,CA,NEEDLES AP,,HCN,
113402,USW00023182,34.6294,-118.0836,769.3,CA,PALMDALE AP,,,72382
113406,USW00023187,34.7436,-118.7242,1374.6,CA,SANDBERG,,,72383
113407,USW00023188,32.7336,-117.1831,4.6,CA,SAN DIEGO LINDBERGH FLD,GSN,,72290
113408,USW00023190,34.4258,-119.8425,2.7,CA,SANTA BARBARA MUNI AP,,,72392
113409,USW00023191,33.4050,-118.4158,488.3,CA,AVALON CATALINA AP,,,72292
113423,USW00023230,37.7214,-122.2208,1.8,CA,OAKLAND METRO INTL AP,,,72493
113424,USW00023232,38.5069,-121.4950,4.6,CA,SACRAMENTO EXECUTIVE AP,,,72483
113425,USW00023233,36.6636,-121.6081,22.6,CA,SALINAS MUNICIPAL AP,,,72593
113426,USW00023234,37.6197,-122.3647,2.4,CA,SAN FRANCISCO INTL AP,,,72494
113427,USW00023237,37.8892,-121.2258,7.9,CA,STOCKTON METRO AP,,,72492
113439,USW00023258,37.6242,-120.9506,22.3,CA,MODESTO CITY CO AP,,,
113440,USW00023259,36.5881,-121.8453,50.3,CA,MONTEREY PENINSUL AP,,,
113441,USW00023271,38.5556,-121.4169,11.6,CA,SACRAMENTO 5 ESE,,,
113442,USW00023272,37.7706,-122.4269,45.7,CA,SAN FRANCISCO DWTN,,,
113443,USW00023273,34.8994,-120.4486,73.8,CA,SANTA MARIA PUBLIC AP,,,72394
113444,USW00023275,39.1258,-123.2008,183.2,CA,UKIAH MUNI AP,,,
113548,USW00024213,40.8097,-124.1603,6.1,CA,EUREKA WFO WOODLEY ISLAND,GSN,HCN,72594
113551,USW00024216,40.1519,-122.2536,107.6,CA,RED BLUFF MUNI AP,,,72591
113589,USW00024257,40.5175,-122.2986,151.5,CA,REDDING MUNI AP,,HCN,72592
113596,USW00024286,41.7803,-124.2367,17.1,CA,CRESCENT CITY MCNAMARA AP,,,
113985,USW00093134,34.0511,-118.2353,70.1,CA,LOS ANGELES DWTN USC CAMPUS,,,
113993,USW00093193,36.7800,-119.7194,101.5,CA,FRESNO YOSEMITE INTL AP,GSN,HCN,72389
113998,USW00093209,35.6697,-120.6283,246.9,CA,PASO ROBLES MUNI AP,,,
114012,USW00093230,38.8983,-119.9947,1924.5,CA,SOUTH LAKE TAHOE AP,,,
